city,profit,revenue,latitude,longitude
Kaohsiung,1000,6000,22.626211808720097,120.26579361583691
Taichung,700,1000,24.156129226707527,120.66614726166189
Taipei,500,2500,25.047355589511582,121.516670158043
Taitung,200,2000,22.76934175963265,121.15487249465029
Hualian,550,3000,23.981382414838222,121.60638565165011
Tainan,300,5000,22.997414282273525,120.21217268558209